# Source: AeroRust/nmea tests/data/nmea_with_sat_info.log lines 1-100
# Real upstream NMEA data only; no synthetic repetition.
$GPGSA,A,1,,,,,,,,,,,,,,,*1E
$GNGSA,A,1,,,,,,,,,,,,,,,*00
$PQGSA,A,1,,,,,,,,,,,,,,,*08
$GPVTG,,T,,M,,N,,K,N*2C
$GPRMC,,V,,,,,,,,,,N,V*29
$GPGGA,,,,,,0,,,,,,,,*66
$GPGSV,3,1,11,05,19,222,36,07,05,090,29,13,84,239,39,14,56,052,36,1*64
$GPGSV,3,2,11,15,50,296,25,17,35,125,24,23,11,319,28,24,16,284,32,1*60
$GPGSV,3,3,11,19,23,147,,20,03,201,,30,28,084,,1*58
$GLGSV,2,1,08,79,61,298,38,69,63,275,32,68,39,185,38,78,43,037,,1*76
$GLGSV,2,2,08,70,14,330,,88,15,082,,87,14,039,,81,00,000,,1*75
$GAGSV,2,1,08,02,56,046,38,07,54,298,36,08,60,174,33,30,66,239,34,7*70
$GAGSV,2,2,08,03,11,149,,11,01,046,,25,08,052,,27,11,233,,7*78
$PQGSV,1,1,0,0*43
$PQGSV,3,1,12,02,11,112,,05,28,135,,07,22,049,,09,02,118,,0*73
$PQGSV,3,2,12,10,36,054,,11,20,075,,12,05,029,,19,00,000,,0*71
$PQGSV,3,3,12,20,37,296,,23,66,039,,25,19,068,,28,03,153,,0*7F
$GNGSA,A,3,05,07,13,14,15,17,19,23,24,,,,1.0,0.7,0.7,1*38
$GNGSA,A,3,68,69,78,79,,,,,,,,,1.0,0.7,0.7,2*33
$GNGSA,A,3,02,07,08,30,,,,,,,,,1.0,0.7,0.7,3*3C
$GNVTG,,T,,M,0.0,N,0.0,K,A*3D
$GNRMC,052345.77,A,4210.472433,N,02445.362882,E,0.0,,130422,3.2,E,A,V*7D
$GNGGA,052345.77,4210.472433,N,02445.362882,E,1,12,0.7,171.9,M,36.9,M,,*71
$GNGSA,A,3,05,07,13,14,15,17,19,23,24,,,,1.0,0.7,0.7,1*38
$GNGSA,A,3,68,69,78,79,,,,,,,,,1.0,0.7,0.7,2*33
$GNGSA,A,3,02,07,08,30,,,,,,,,,1.0,0.7,0.7,3*3C
$GNVTG,,T,,M,0.0,N,0.0,K,A*3D
$GNRMC,052347.00,A,4210.472433,N,02445.362882,E,0.0,,130422,3.2,E,A,V*7F
$GNGGA,052347.00,4210.472433,N,02445.362882,E,1,12,0.7,172.9,M,36.9,M,,*70
$GPGSV,3,1,12,05,19,222,31,07,05,090,25,13,84,239,35,14,56,052,33,1*65
$GPGSV,3,2,12,15,50,296,28,17,35,125,20,23,11,319,21,24,16,284,26,1*66
$GPGSV,3,3,12,28,00,000,28,30,28,084,18,19,23,147,,20,03,201,,1*62
$GLGSV,2,1,08,79,61,298,36,69,63,275,25,88,15,082,17,68,39,185,35,1*77
$GLGSV,2,2,08,78,43,037,,70,14,330,,87,14,039,,81,00,000,,1*77
$GAGSV,2,1,08,02,56,046,35,07,54,298,31,08,60,174,30,30,66,239,31,7*7C
$GAGSV,2,2,08,03,11,149,,11,01,046,,25,08,052,,27,11,233,,7*78
$PQGSV,1,1,0,0*43
$PQGSV,3,1,12,10,36,054,18,12,05,029,20,20,37,296,27,23,66,039,33,0*74
$PQGSV,3,2,12,02,11,112,,05,28,135,,07,22,049,,09,02,118,,0*70
$PQGSV,3,3,12,11,20,075,,19,00,000,,25,19,068,,28,03,153,,0*77
$GNGSA,A,3,05,07,13,14,15,17,19,23,24,,,,1.0,0.7,0.7,1*38
$GNGSA,A,3,68,69,78,79,,,,,,,,,1.0,0.7,0.7,2*33
$GNGSA,A,3,02,07,08,30,,,,,,,,,1.0,0.7,0.7,3*3C
$PQGSA,A,2,12,,,,,,,,,,,,1.0,0.7,0.7,5*3E
$GNVTG,,T,,M,0.0,N,0.0,K,A*3D
$GNRMC,052348.00,A,4210.472434,N,02445.363044,E,0.0,,130422,3.2,E,A,V*74
$GNGGA,052348.00,4210.472434,N,02445.363044,E,1,12,0.7,175.5,M,36.9,M,,*70
$GPGSV,3,1,12,05,19,222,33,07,05,090,26,13,84,239,37,14,56,052,35,1*60
$GPGSV,3,2,12,15,50,296,32,17,35,125,24,23,11,319,21,24,16,284,27,1*68
$GPGSV,3,3,12,28,00,000,31,30,28,084,17,19,23,147,,20,03,201,,1*65
$GLGSV,2,1,08,78,43,037,15,79,61,298,37,69,63,275,31,88,15,082,16,1*74
$GLGSV,2,2,08,68,39,185,35,70,14,330,,87,14,039,,81,00,000,,1*75
$GAGSV,2,1,08,02,56,046,36,07,54,298,33,08,60,174,31,30,66,239,31,7*7C
$GAGSV,2,2,08,03,11,149,,11,01,046,,25,08,052,,27,11,233,,7*78
$PQGSV,1,1,0,0*43
$PQGSV,3,1,12,10,36,054,19,12,05,029,20,20,37,296,30,23,66,039,34,0*74
$PQGSV,3,2,12,02,11,112,,05,28,135,,07,22,049,,09,02,118,,0*70
$PQGSV,3,3,12,11,20,075,,19,00,000,,25,19,068,,28,03,153,,0*77
$GNGSA,A,3,05,07,13,14,15,17,19,23,24,,,,1.0,0.7,0.7,1*38
$GNGSA,A,3,68,69,78,79,,,,,,,,,1.0,0.7,0.7,2*33
$GNGSA,A,3,02,07,08,30,,,,,,,,,1.0,0.7,0.7,3*3C
$PQGSA,A,2,12,,,,,,,,,,,,1.0,0.7,0.7,5*3E
$GNVTG,,T,,M,0.0,N,0.0,K,A*3D
$GNRMC,052349.00,A,4210.472446,N,02445.363245,E,0.0,,130422,3.2,E,A,V*73
$GNGGA,052349.00,4210.472446,N,02445.363245,E,1,12,0.7,172.7,M,36.9,M,,*72
$GPGSV,3,1,12,05,19,222,36,07,05,090,22,13,84,239,33,14,56,052,37,1*67
$GPGSV,3,2,12,15,50,296,35,17,35,125,24,23,11,319,27,24,16,284,30,1*6F
$GPGSV,3,3,12,28,00,000,30,30,28,084,18,19,23,147,,20,03,201,,1*6B
$GLGSV,2,1,08,78,43,037,21,70,14,330,15,79,61,298,36,69,63,275,38,1*74
$GLGSV,2,2,08,88,15,082,15,68,39,185,31,87,14,039,,81,00,000,,1*79
$GAGSV,2,1,08,02,56,046,31,07,54,298,30,08,60,174,25,30,66,239,34,7*78
$GAGSV,2,2,08,03,11,149,,11,01,046,,25,08,052,,27,11,233,,7*78
$PQGSV,1,1,0,0*43
$PQGSV,3,1,12,10,36,054,19,12,05,029,20,20,37,296,26,23,66,039,36,0*71
$PQGSV,3,2,12,02,11,112,,05,28,135,,07,22,049,,09,02,118,,0*70
$PQGSV,3,3,12,11,20,075,,19,00,000,,25,19,068,,28,03,153,,0*77
$GNGSA,A,3,05,07,13,14,15,17,23,24,,,,,1.0,0.7,0.7,1*30
$GNGSA,A,3,68,69,78,79,,,,,,,,,1.0,0.7,0.7,2*33
$GNGSA,A,3,02,07,08,30,,,,,,,,,1.0,0.7,0.7,3*3C
$PQGSA,A,2,12,,,,,,,,,,,,1.0,0.7,0.7,5*3E
$GNVTG,,T,,M,0.0,N,0.0,K,A*3D
$GNRMC,052350.00,A,4210.472468,N,02445.363411,E,0.0,,130422,3.2,E,A,V*70
$GNGGA,052350.00,4210.472468,N,02445.363411,E,1,12,0.7,174.1,M,36.9,M,,*71
$GPGSV,3,1,12,05,19,222,36,07,05,090,19,13,84,239,34,14,56,052,38,1*67
$GPGSV,3,2,12,15,50,296,34,17,35,125,21,20,03,201,15,23,11,319,29,1*6F
$GPGSV,3,3,12,24,16,284,30,28,00,000,28,19,23,147,,30,28,084,,1*65
$GLGSV,2,1,08,78,43,037,20,70,14,330,15,79,61,298,34,69,63,275,38,1*77
$GLGSV,2,2,08,88,15,082,15,68,39,185,32,87,14,039,,81,00,000,,1*7A
$GAGSV,2,1,08,02,56,046,27,07,54,298,26,08,60,174,17,30,66,239,34,7*79
$GAGSV,2,2,08,03,11,149,,11,01,046,,25,08,052,,27,11,233,,7*78
$PQGSV,1,1,0,0*43
$PQGSV,3,1,12,10,36,054,19,12,05,029,20,20,37,296,28,23,66,039,36,0*7F
$PQGSV,3,2,12,02,11,112,,05,28,135,,07,22,049,,09,02,118,,0*70
$PQGSV,3,3,12,11,20,075,,19,00,000,,25,19,068,,28,03,153,,0*77
$GNGSA,A,3,05,07,13,14,15,17,23,24,,,,,1.0,0.7,0.7,1*30
$GNGSA,A,3,68,69,78,79,,,,,,,,,1.0,0.7,0.7,2*33
$GNGSA,A,3,02,07,08,30,,,,,,,,,1.0,0.7,0.7,3*3C
$PQGSA,A,2,12,,,,,,,,,,,,1.0,0.7,0.7,5*3E
$GNVTG,,T,,M,0.0,N,0.0,K,A*3D
$GNRMC,052351.00,A,4210.472443,N,02445.363518,E,0.0,,130422,3.2,E,A,V*70
